locations[
  {
    "name":"Jaipur",
    "latitude":"26.9124",
    "longitude":"75.7873"
  },
  {
    "name":"Chennai",
    "latitude":"13.0827",
    "longitude":"80.2707"
  },
  {
    "name":"Mumbai",
    "latitude":"19.0760",
    "longitude":"72.8777"
  },
  {
    "name":"Delhi",
    "latitude":"28.7041",
    "longitude":"77.1025"
  },,
  {
    "name":"Shimla",
    "latitude":"31.1048",
    "longitude":"77.1734"
  },
  {
    "name":"Pune",
    "latitude":"18.5204",
    "longitude":"73.8567"
  },
  {
    "name":"Gujarat",
    "latitude":"22.2587",
    "longitude":"71.1924"
  },
  {
    "name":"Tamilnadu",
    "latitude":"11.1271",
    "longitude":"78.6569"
  },
  {
    "name":"MadhyaPradesh",
    "latitude":"22.9734",
    "longitude":"78.6569"
  },
  {
    "name":"Karnataka",
    "latitude":"15.3173",
    "longitude":"75.7139"
  }
]
